{"version": 0.6, "generator": "Overpass API 0.7.59.2 0994154d", "osm3s": {"timestamp_osm_base": "2023-03-21T10:29:39Z", "copyright": "The data included in this document is from www.openstreetmap.org. The data is made available under ODbL."}, "elements": [{"type": "node", "id": 272047687, "lat": 56.5172608, "lon": 8.6137962, "tags": {"amenity": "ferry_terminal"}}, {"type": "node", "id": 321728603, "lat": 56.7388179, "lon": 8.5002453}, {"type": "node", "id": 321728605, "lat": 56.7395469, "lon": 8.4899853}, {"type": "node", "id": 321730280, "lat": 56.740062, "lon": 8.487151, "tags": {"amenity": "ferry_terminal", "ferry": "yes", "name": "N\u00e6ssund F\u00e6rgen", "public_transport": "station"}}, {"type": "node", "id": 1153560970, "lat": 56.6998003, "lon": 8.2486908}, {"type": "node", "id": 1153561599, "lat": 56.7010843, "lon": 8.2479677}, {"type": "node", "id": 1153563186, "lat": 56.7002683, "lon": 8.248474}, {"type": "node", "id": 1458501766, "lat": 56.6844784, "lon": 8.2249215, "tags": {"amenity": "ferry_terminal", "cargo": "passengers;vehicle;bicycle;hgv", "ferry": "yes", "name": "Thybor\u00f8n", "public_transport": "stop_position"}}, {"type": "node", "id": 1458501767, "lat": 56.683529, "lon": 8.2327299}, {"type": "node", "id": 1458501768, "lat": 56.6854378, "lon": 8.2369937}, {"type": "node", "id": 1458501770, "lat": 56.6980443, "lon": 8.247575}, {"type": "node", "id": 1458501771, "lat": 56.6992572, "lon": 8.2486919}, {"type": "node", "id": 1458501773, "lat": 56.701765, "lon": 8.2472565, "tags": {"amenity": "ferry_terminal", "cargo": "passengers;vehicle;bicycle;hgv", "ferry": "yes", "name": "Agger Tange", "public_transport": "stop_position"}}, {"type": "node", "id": 1485613490, "lat": 56.5159425, "lon": 8.6176776, "tags": {"amenity": "ferry_terminal", "ferry": "yes", "public_transport": "station"}}, {"type": "node", "id": 3718415900, "lat": 56.7386327, "lon": 8.5039122, "tags": {"amenity": "ferry_terminal", "ferry": "yes", "name": "N\u00e6ssund F\u00e6rgen", "public_transport": "station"}}, {"type": "node", "id": 6466641659, "lat": 56.7017374, "lon": 8.2472925}, {"type": "node", "id": 6466641660, "lat": 56.683562, "lon": 8.2333732}, {"type": "node", "id": 6466642109, "lat": 56.6837093, "lon": 8.233974}, {"type": "node", "id": 6466642110, "lat": 56.6840924, "lon": 8.2347786}, {"type": "node", "id": 8786499358, "lat": 56.5161031, "lon": 8.6166469}, {"type": "way", "id": 25029370, "nodes": [272047687, 8786499358, 1485613490], "tags": {"alt_name": "Struer - Ven\u00f8", "bicycle": "yes", "duration": "0:02", "email": "info@venoefaergefart.dk", "foot": "yes", "motor_vehicle": "yes", "name": "Ven\u00f8 F\u00e6rgefart", "phone": "+45 97 86 80 44", "route": "ferry", "website": "http://venoefaergefart.dk/"}}, {"type": "way", "id": 27832399, "nodes": [1458501766, 1458501767, 6466641660, 6466642109, 6466642110, 1458501768, 1458501770, 1458501771, 1153560970, 1153563186, 1153561599, 6466641659, 1458501773], "tags": {"bicycle": "yes", "duration": "00:12", "foot": "yes", "maxaxleload": "12", "maxheight": "4.3", "maxlength": "20", "maxweight": "3.9", "maxweight:hgv": "65", "motor_vehicle": "yes", "name": "Thybor\u00f8n-Agger F\u00e6rgefart", "phone": "+45 2023 0336", "route": "ferry", "website": "https://www.thyboronagger.dk/"}}, {"type": "way", "id": 29254532, "nodes": [3718415900, 321728603, 321728605, 321730280], "tags": {"alt_name": "Mors - Thy", "bicycle": "yes", "duration": "00:05", "foot": "yes", "motor_vehicle": "yes", "name": "N\u00e6ssundf\u00e6rgen", "route": "ferry", "website": "http://www.naessund.dk/", "wikidata": "Q19786828", "wikipedia": "da:Mors-Thy F\u00e6rgefart (N\u00e6ssund)"}}]}